[
  {
    "code": "ROMT",
    "lat": "41.9010",
    "lon": "12.5000",
    "name": "Roma Termini",
    "city": "Roma",
    "state": "Lazio",
    "country": "Italia",
    "tz": "Europe/Rome",
    "type": "Train Station",
    "platforms": "29",
    "carriers": "Trenitalia, Italo"
  },
  {
    "code": "MILC",
    "lat": "45.4850",
    "lon": "9.2040",
    "name": "Milano Centrale",
    "city": "Milano",
    "state": "Lombardia",
    "country": "Italia",
    "tz": "Europe/Rome",
    "type": "Train Station",
    "platforms": "24",
    "carriers": "Trenitalia, Italo"
  },
  {
    "code": "NAPC",
    "lat": "40.8522",
    "lon": "14.2681",
    "name": "Napoli Centrale",
    "city": "Napoli",
    "state": "Campania",
    "country": "Italia",
    "tz": "Europe/Rome",
    "type": "Train Station",
    "platforms": "25",
    "carriers": "Trenitalia, Italo"
  },
  {
    "code": "FLRS",
    "lat": "43.7760",
    "lon": "11.2480",
    "name": "Firenze Santa Maria Novella",
    "city": "Firenze",
    "state": "Toscana",
    "country": "Italia",
    "tz": "Europe/Rome",
    "type": "Train Station",
    "platforms": "19",
    "carriers": "Trenitalia, Italo"
  },
  {
    "code": "BOLC",
    "lat": "44.5050",
    "lon": "11.3417",
    "name": "Bologna Centrale",
    "city": "Bologna",
    "state": "Emilia-Romagna",
    "country": "Italia",
    "tz": "Europe/Rome",
    "type": "Train Station",
    "platforms": "27",
    "carriers": "Trenitalia, Italo"
  },
  {
    "code": "TORM",
    "lat": "45.0703",
    "lon": "7.6869",
    "name": "Torino Porta Nuova",
    "city": "Torino",
    "state": "Piemonte",
    "country": "Italia",
    "tz": "Europe/Rome",
    "type": "Train Station",
    "platforms": "20",
    "carriers": "Trenitalia, Italo"
  },
  {
    "code": "GENP",
    "lat": "44.4111",
    "lon": "8.9328",
    "name": "Genova Piazza Principe",
    "city": "Genova",
    "state": "Liguria",
    "country": "Italia",
    "tz": "Europe/Rome",
    "type": "Train Station",
    "platforms": "16",
    "carriers": "Trenitalia"
  },
  {
    "code": "VECS",
    "lat": "45.4408",
    "lon": "12.3155",
    "name": "Venezia Santa Lucia",
    "city": "Venezia",
    "state": "Veneto",
    "country": "Italia",
    "tz": "Europe/Rome",
    "type": "Train Station",
    "platforms": "16",
    "carriers": "Trenitalia, Italo"
  },
  {
    "code": "VERP",
    "lat": "45.4384",
    "lon": "10.9916",
    "name": "Verona Porta Nuova",
    "city": "Verona",
    "state": "Veneto",
    "country": "Italia",
    "tz": "Europe/Rome",
    "type": "Train Station",
    "platforms": "12",
    "carriers": "Trenitalia, Italo"
  },
  {
    "code": "PADV",
    "lat": "45.4064",
    "lon": "11.8768",
    "name": "Padova",
    "city": "Padova",
    "state": "Veneto",
    "country": "Italia",
    "tz": "Europe/Rome",
    "type": "Train Station",
    "platforms": "11",
    "carriers": "Trenitalia, Italo"
  },
  {
    "code": "TRIS",
    "lat": "41.1253",
    "lon": "16.8667",
    "name": "Bari Centrale",
    "city": "Bari",
    "state": "Puglia",
    "country": "Italia",
    "tz": "Europe/Rome",
    "type": "Train Station",
    "platforms": "12",
    "carriers": "Trenitalia"
  },
  {
    "code": "PALC",
    "lat": "38.1157",
    "lon": "13.3615",
    "name": "Palermo Centrale",
    "city": "Palermo",
    "state": "Sicilia",
    "country": "Italia",
    "tz": "Europe/Rome",
    "type": "Train Station",
    "platforms": "10",
    "carriers": "Trenitalia"
  },
  {
    "code": "CATA",
    "lat": "37.5027",
    "lon": "15.0873",
    "name": "Catania Centrale",
    "city": "Catania",
    "state": "Sicilia",
    "country": "Italia",
    "tz": "Europe/Rome",
    "type": "Train Station",
    "platforms": "8",
    "carriers": "Trenitalia"
  },
  {
    "code": "PISCE",
    "lat": "43.7085",
    "lon": "10.4036",
    "name": "Pisa Centrale",
    "city": "Pisa",
    "state": "Toscana",
    "country": "Italia",
    "tz": "Europe/Rome",
    "type": "Train Station",
    "platforms": "16",
    "carriers": "Trenitalia"
  },
  {
    "code": "ANAC",
    "lat": "43.6158",
    "lon": "13.5189",
    "name": "Ancona",
    "city": "Ancona",
    "state": "Marche",
    "country": "Italia",
    "tz": "Europe/Rome",
    "type": "Train Station",
    "platforms": "10",
    "carriers": "Trenitalia"
  },
  {
    "code": "TRIE",
    "lat": "45.6495",
    "lon": "13.7768",
    "name": "Trieste Centrale",
    "city": "Trieste",
    "state": "Friuli-Venezia Giulia",
    "country": "Italia",
    "tz": "Europe/Rome",
    "type": "Train Station",
    "platforms": "8",
    "carriers": "Trenitalia"
  },
  {
    "code": "BREC",
    "lat": "45.5416",
    "lon": "10.2190",
    "name": "Brescia",
    "city": "Brescia",
    "state": "Lombardia",
    "country": "Italia",
    "tz": "Europe/Rome",
    "type": "Train Station",
    "platforms": "9",
    "carriers": "Trenitalia, Italo"
  },
  {
    "code": "PARM",
    "lat": "44.8015",
    "lon": "10.3279",
    "name": "Parma",
    "city": "Parma",
    "state": "Emilia-Romagna",
    "country": "Italia",
    "tz": "Europe/Rome",
    "type": "Train Station",
    "platforms": "7",
    "carriers": "Trenitalia"
  },
  {
    "code": "SALC",
    "lat": "40.6807",
    "lon": "14.7594",
    "name": "Salerno",
    "city": "Salerno",
    "state": "Campania",
    "country": "Italia",
    "tz": "Europe/Rome",
    "type": "Train Station",
    "platforms": "10",
    "carriers": "Trenitalia, Italo"
  },
  {
    "code": "LACC",
    "lat": "45.8176",
    "lon": "8.8261",
    "name": "Lago Maggiore - Laveno",
    "city": "Laveno",
    "state": "Lombardia",
    "country": "Italia",
    "tz": "Europe/Rome",
    "type": "Train Station",
    "platforms": "3",
    "carriers": "Trenitalia"
  }
]
